{"last_updated":1550855151,"ttl":23,"data":{"stations":[{"station_id":"7000","name":"Fort York  Blvd / Capreol Crt","lat":43.639832,"lon":-79.395954,"address":"Fort York  Blvd / Capreol Crt","capacity":31,"rental_methods":["KEY","CREDITCARD","TRANSITCARD","PHONE"]},{"station_id":"7001","name":"Lower Jarvis St / The Esplanade","lat":43.647992,"lon":-79.370907,"address":"Lower Jarvis St / The Esplanade","capacity":15,"rental_methods":["KEY","CREDITCARD","TRANSITCARD","PHONE"]},{"station_id":"7002","name":"St. George St / Bloor St W","lat":43.667333,"lon":-79.399429,"address":"St. George St / Bloor St W","capacity":19,"rental_methods":["KEY","CREDITCARD","TRANSITCARD","PHONE"]},{"station_id":"7003","name":"Madison Ave / Bloor St W","lat":43.667158,"lon":-79.402761,"address":"Madison Ave / Bloor St W","capacity":15,"rental_methods":["KEY","CREDITCARD","TRANSITCARD","PHONE"]},{"station_id":"7004","name":"University Ave / Elm St","lat":43.656518,"lon":-79.389099,"address":"University Ave / Elm St","capacity":11,"rental_methods":["KEY","CREDITCARD","TRANSITCARD","PHONE"]},{"station_id":"7005","name":"University Ave / King St W","lat":43.648093,"lon":-79.384749,"address":"University Ave / King St W","capacity":19,"rental_methods":["KEY","CREDITCARD","TRANSITCARD","PHONE"]},{"station_id":"7006","name":"Bay St / College St (East Side)","lat":43.660439,"lon":-79.385525,"address":"Bay St / College St (East Side)","capacity":11,"rental_methods":["KEY","CREDITCARD","TRANSITCARD","PHONE"]},{"station_id":"7007","name":"College St / Huron St","lat":43.658148,"lon":-79.398167,"address":"College St / Huron St","capacity":11,"rental_methods":["KEY","CREDITCARD","TRANSITCARD","PHONE"]},{"station_id":"7008","name":"Wellesley St / Queen's Park Cres","lat":43.663376,"lon":-79.392125,"address":"Wellesley St W / Queen's Park Cres","capacity":19,"rental_methods":["KEY","CREDITCARD","TRANSITCARD","PHONE"]},{"station_id":"7009","name":"King St E / Jarvis St","lat":43.650325,"lon":-79.372287,"address":"King St E / Jarvis St","capacity":11,"rental_methods":["KEY","CREDITCARD","TRANSITCARD","PHONE"]},{"station_id":"7010","name":"King St W / Spadina Ave","lat":43.645323,"lon":-79.395003,"address":"King St W / Spadina Ave","capacity":19,"rental_methods":["KEY","CREDITCARD","TRANSITCARD","PHONE"]},{"station_id":"7011","name":"Wellington St W / Portland St","lat":43.642982,"lon":-79.399256,"address":"Wellington St W / Portland St","capacity":11,"rental_methods":["KEY","CREDITCARD","TRANSITCARD","PHONE"]},{"station_id":"7012","name":"Elizabeth St / Edward St (Bus Terminal)","lat":43.656026,"lon":-79.385327,"address":"Elizabeth St / Edward St (Bus Terminal)","capacity":15,"rental_methods":["KEY","CREDITCARD","TRANSITCARD","PHONE"]},{"station_id":"7013","name":"Scott St / The Esplanade","lat":43.64656,"lon":-79.375274,"address":"Scott St / The Esplanade","capacity":19,"rental_methods":["KEY","CREDITCARD","TRANSITCARD","PHONE"]},{"station_id":"7014","name":"Sherbourne St / Carlton St (Allan Gardens)","lat":43.663102,"lon":-79.373181,"address":"Sherbourne St / Carlton St (Allan Gardens)","capacity":17,"rental_methods":["KEY","CREDITCARD","TRANSITCARD","PHONE"]},{"station_id":"7015","name":"King St W / Bay St (West Side)","lat":43.64852,"lon":-79.380576,"address":"King St W / Bay St (West Side)","capacity":19,"rental_methods":["KEY","CREDITCARD","TRANSITCARD","PHONE"]},{"station_id":"7016","name":"Bay St / Queens Quay W (Ferry Terminal)","lat":43.640823,"lon":-79.376265,"address":"Bay St / Queens Quay W (Ferry Terminal)","capacity":23,"rental_methods":["KEY","CREDITCARD","TRANSITCARD","PHONE"]},{"station_id":"7017","name":"Widmer St / Adelaide St W","lat":43.647145,"lon":-79.391479,"address":"Widmer St / Adelaide St W","capacity":19,"rental_methods":["KEY","CREDITCARD","TRANSITCARD","PHONE"]},{"station_id":"7018","name":"Bremner Blvd / Rees St","lat":43.641529,"lon":-79.386741,"address":"Bremner Blvd / Rees St","capacity":15,"rental_methods":["KEY","CREDITCARD","TRANSITCARD","PHONE"]},{"station_id":"7019","name":"Temperance St. Station","lat":43.6507021,"lon":-79.3800546,"address":"Temperance St. Station","capacity":19,"rental_methods":["KEY","CREDITCARD","TRANSITCARD","PHONE"]},{"station_id":"7020","name":"Phoebe St / Spadina Ave","lat":43.650033,"lon":-79.396555,"address":"Phoebe St / Spadina Ave","capacity":33,"rental_methods":["KEY","CREDITCARD","TRANSITCARD","PHONE"]},{"station_id":"7021","name":"Bay St / Albert St","lat":43.653264,"lon":-79.382458,"address":"Bay St / Albert St","capacity":31,"rental_methods":["KEY","CREDITCARD","TRANSITCARD","PHONE"]},{"station_id":"7022","name":"Simcoe St / Queen St W","lat":43.650858,"lon":-79.387582,"address":"Simcoe St / Queen St W","capacity":27,"rental_methods":["KEY","CREDITCARD","TRANSITCARD","PHONE"]},{"station_id":"7023","name":"College St / Borden St","lat":43.6571,"lon":-79.4056,"address":"College St / Borden St","capacity":11,"rental_methods":["KEY","CREDITCARD","TRANSITCARD","PHONE"]},{"station_id":"7024","name":"Dundonald St / Church St","lat":43.66663,"lon":-79.38148,"address":"Dundonald St / Church St","capacity":23,"rental_methods":["KEY","CREDITCARD","TRANSITCARD","PHONE"]},{"station_id":"7025","name":"Ted Rogers Way / Bloor St E","lat":43.671293,"lon":-79.380471,"address":"Ted Rogers Way / Bloor St E","capacity":27,"rental_methods":["KEY","CREDITCARD","TRANSITCARD","PHONE"]},{"station_id":"7026","name":"Bay St / St. Joseph St","lat":43.665527,"lon":-79.387499,"address":"Bay St / St. Joseph St","capacity":15,"rental_methods":["KEY","CREDITCARD","TRANSITCARD","PHONE"]},{"station_id":"7027","name":"Beverly  St / Dundas St W","lat":43.652823,"lon":-79.393388,"address":"Beverly  St / Dundas St W","capacity":23,"rental_methods":["KEY","CREDITCARD","TRANSITCARD","PHONE"]},{"station_id":"7028","name":"Gould St / Mutual St","lat":43.6582,"lon":-79.3768,"address":"Gould St / Mutual St","capacity":31,"rental_methods":["KEY","CREDITCARD","TRANSITCARD","PHONE"]},{"station_id":"7029","name":"St. James Park (King St. E.)","lat":43.6501624,"lon":-79.3733997,"address":"St. James Park (King St. E.)","capacity":15,"rental_methods":["KEY","CREDITCARD","TRANSITCARD","PHONE"]},{"station_id":"7030","name":"Bay St / Wellesley St W","lat":43.664088,"lon":-79.387095,"address":"Bay St / Wellesley St W","capacity":35,"rental_methods":["KEY","CREDITCARD","TRANSITCARD","PHONE"]},{"station_id":"7031","name":"Jarvis St / Isabella St","lat":43.668991,"lon":-79.379385,"address":"Jarvis St / Isabella St","capacity":23,"rental_methods":["KEY","CREDITCARD","TRANSITCARD","PHONE"]},{"station_id":"7032","name":"Augusta Ave / Dundas St W","lat":43.652473,"lon":-79.401456,"address":"Augusta Ave / Dundas St W","capacity":14,"rental_methods":["KEY","CREDITCARD","TRANSITCARD","PHONE"]},{"station_id":"7033","name":"Union Station","lat":43.645609,"lon":-79.380386,"address":"Union Station","capacity":27,"rental_methods":["KEY","CREDITCARD","TRANSITCARD","PHONE"]},{"station_id":"7034","name":"Church St / Bloor St E","lat":43.671389,"lon":-79.382919,"address":"Church St / Bloor St E","capacity":15,"rental_methods":["KEY","CREDITCARD","TRANSITCARD","PHONE"]},{"station_id":"7035","name":"Queen St W / Ossington Ave","lat":43.643975,"lon":-79.419576,"address":"Queen St W / Ossington Ave","capacity":23,"rental_methods":["KEY","CREDITCARD","TRANSITCARD","PHONE"]},{"station_id":"7036","name":"Trinity St /Front St E","lat":43.651318,"lon":-79.36023,"address":"Trinity St / Front St E","capacity":19,"rental_methods":["KEY","CREDITCARD","TRANSITCARD","PHONE"]},{"station_id":"7037","name":"Bathurst St / Dundas St W","lat":43.6523,"lon":-79.4058,"address":"Bathurst St / Dundas St W","capacity":19,"rental_methods":["KEY","CREDITCARD","TRANSITCARD","PHONE"]},{"station_id":"7038","name":"Dundas St W / Yonge St","lat":43.656094,"lon":-79.381484,"address":"Dundas St W / Yonge St","capacity":15,"rental_methods":["KEY","CREDITCARD","TRANSITCARD","PHONE"]},{"station_id":"7039","name":"Simcoe St / Dundas St W","lat":43.653743,"lon":-79.38882,"address":"Simcoe St / Dundas St W","capacity":27,"rental_methods":["KEY","CREDITCARD","TRANSITCARD","PHONE"]},{"station_id":"7040","name":"Euclid Ave / Bloor St W","lat":43.664467,"lon":-79.414783,"address":"Euclid Ave / Bloor St W","capacity":19,"rental_methods":["KEY","CREDITCARD","TRANSITCARD","PHONE"]},{"station_id":"7041","name":"Edward St / Yonge St","lat":43.656729,"lon":-79.382736,"address":"Edward St / Yonge St","capacity":23,"rental_methods":["KEY","CREDITCARD","TRANSITCARD","PHONE"]},{"station_id":"7042","name":"Sherbourne St / Wellesley St E","lat":43.6673,"lon":-79.374,"address":"Sherbourne St / Wellesley St E","capacity":31,"rental_methods":["KEY","CREDITCARD","TRANSITCARD","PHONE"]},{"station_id":"7043","name":"Queens Quay W / Lower Simcoe St","lat":43.63951,"lon":-79.383717,"address":"Queens Quay W / Lower Simcoe St","capacity":19,"rental_methods":["KEY","CREDITCARD","TRANSITCARD","PHONE"]},{"station_id":"7044","name":"Church St / Alexander St","lat":43.663722,"lon":-79.380288,"address":"Church St / Alexander St","capacity":15,"rental_methods":["KEY","CREDITCARD","TRANSITCARD","PHONE"]},{"station_id":"7045","name":"Bond St / Queen St E","lat":43.653236,"lon":-79.376716,"address":"Bond St / Queen St E","capacity":25,"rental_methods":["KEY","CREDITCARD","TRANSITCARD","PHONE"]},{"station_id":"7046","name":"Niagara St / Richmond St W","lat":43.64534,"lon":-79.409597,"address":"Niagara St / Richmond St W","capacity":15,"rental_methods":["KEY","CREDITCARD","TRANSITCARD","PHONE"]},{"station_id":"7047","name":"University Ave / Gerrard St W","lat":43.657763,"lon":-79.389165,"address":"University Ave / Gerrard St W","capacity":25,"rental_methods":["KEY","CREDITCARD","TRANSITCARD","PHONE"]},{"station_id":"7048","name":"Front St W / Yonge St (Hockey Hall of Fame)","lat":43.646144,"lon":-79.377962,"address":"Front St W / Yonge St (Hockey Hall of Fame)","capacity":47,"rental_methods":["KEY","CREDITCARD","TRANSITCARD","PHONE"]},{"station_id":"7049","name":"Queen St W / Portland St","lat":43.6476,"lon":-79.4015,"address":"Queen St W / Portland St","capacity":11,"rental_methods":["KEY","CREDITCARD","TRANSITCARD","PHONE"]},{"station_id":"7050","name":"Richmond St E / Jarvis St Green P","lat":43.652634,"lon":-79.374222,"address":"Richmond St E / Jarvis St Green P","capacity":11,"rental_methods":["KEY","CREDITCARD","TRANSITCARD","PHONE"]},{"station_id":"7051","name":"Wellesley St E / Yonge St (Green P)","lat":43.66506,"lon":-79.38357,"address":"Wellesley St E / Yonge St (Green P)","capacity":17,"rental_methods":["KEY","CREDITCARD","TRANSITCARD","PHONE"]},{"station_id":"7052","name":"Wellington St W / Bay St","lat":43.647259,"lon":-79.379878,"address":"Wellington St W / Bay St","capacity":27,"rental_methods":["KEY","CREDITCARD","TRANSITCARD","PHONE"]},{"station_id":"7053","name":"Metro Hall Plaza","lat":43.645859,"lon":-79.38783,"address":"Metro Hall Plaza","capacity":27,"rental_methods":["KEY","CREDITCARD","TRANSITCARD","PHONE"]},{"station_id":"7054","name":"Navy Wharf Ct. / Bremner Blvd.","lat":43.640722,"lon":-79.391051,"address":"Navy Wharf Ct. / Bremner Blvd.","capacity":11,"rental_methods":["KEY","CREDITCARD","TRANSITCARD","PHONE"]},{"station_id":"7055","name":"Jarvis St / Carlton St","lat":43.66207,"lon":-79.37617,"address":"Jarvis St / Carlton St","capacity":15,"rental_methods":["KEY","CREDITCARD","TRANSITCARD","PHONE"]},{"station_id":"7056","name":"Parliament St / Gerrard St","lat":43.662132,"lon":-79.3656796,"address":"Parliament St / Gerrard St","capacity":23,"rental_methods":["KEY","CREDITCARD","TRANSITCARD","PHONE"]},{"station_id":"7057","name":"Simcoe St / Wellington St 1","lat":43.6461082,"lon":-79.3855266,"address":"Simcoe St / Wellington St 1","capacity":31,"rental_methods":["KEY","CREDITCARD","TRANSITCARD","PHONE"]},{"station_id":"7058","name":"Huron/ Harbord St","lat":43.6637,"lon":-79.400053,"address":"Huron/ Harbord St","capacity":19,"rental_methods":["KEY","CREDITCARD","TRANSITCARD","PHONE"]},{"station_id":"7059","name":"Front St W / Blue Jays Way","lat":43.643473,"lon":-79.390477,"address":"Front St W / Blue Jays Way","capacity":15,"rental_methods":["KEY","CREDITCARD","TRANSITCARD","PHONE"]},{"station_id":"7060","name":"Princess St / Adelaide St E","lat":43.652123,"lon":-79.367139,"address":"Princess St / Adelaide St E","capacity":19,"rental_methods":["KEY","CREDITCARD","TRANSITCARD","PHONE"]},{"station_id":"7061","name":"Bloor St / Brunswick Ave","lat":43.665802,"lon":-79.40731,"address":"Bloor St / Brunswick Ave","capacity":25,"rental_methods":["KEY","CREDITCARD","TRANSITCARD","PHONE"]},{"station_id":"7062","name":"University Ave / College St","lat":43.659226,"lon":-79.390213,"address":"University Ave / College St","capacity":11,"rental_methods":["KEY","CREDITCARD","TRANSITCARD","PHONE"]},{"station_id":"7063","name":"Queen's Park / Bloor St W","lat":43.668456,"lon":-79.393899,"address":"Queen's Park / Bloor St W","capacity":19,"rental_methods":["KEY","CREDITCARD","TRANSITCARD","PHONE"]},{"station_id":"7064","name":"51 Parliament St","lat":43.65205,"lon":-79.362198,"address":"51 Parliament St","capacity":19,"rental_methods":["KEY","CREDITCARD","TRANSITCARD","PHONE"]},{"station_id":"7065","name":"Dundas St E / Parliament St","lat":43.659575,"lon":-79.365769,"address":"Dundas St E / Parliament St","capacity":15,"rental_methods":["KEY","CREDITCARD","TRANSITCARD","PHONE"]},{"station_id":"7066","name":"Willcocks St / St. George St","lat":43.662085,"lon":-79.397735,"address":"Willcocks St / St. George St","capacity":17,"rental_methods":["KEY","CREDITCARD","TRANSITCARD","PHONE"]},{"station_id":"7067","name":"Yonge St / Harbour St","lat":43.643795,"lon":-79.375413,"address":"Yonge St / Harbour St","capacity":39,"rental_methods":["KEY","CREDITCARD","TRANSITCARD","PHONE"]},{"station_id":"7068","name":"Dockside Dr / Queens Quay E (Sugar Beach)","lat":43.644607,"lon":-79.366295,"address":"Dockside Dr / Queens Quay E (Sugar Beach)","capacity":27,"rental_methods":["KEY","CREDITCARD","TRANSITCARD","PHONE"]},{"station_id":"7069","name":"Queen St W / Spadina Ave","lat":43.649147,"lon":-79.395504,"address":"Queen St W / Spadina Ave","capacity":11,"rental_methods":["KEY","CREDITCARD","TRANSITCARD","PHONE"]},{"station_id":"7070","name":"25 York St (ACC/Union Station South)","lat":43.643667,"lon":-79.380414,"address":"25 York St (ACC/Union Station South)","capacity":11,"rental_methods":["KEY","CREDITCARD","TRANSITCARD","PHONE"]},{"station_id":"7071","name":"161 Bleecker St (South of Wellesley)","lat":43.666233,"lon":-79.373327,"address":"161 Bleecker St (South of Wellesley)","capacity":11,"rental_methods":["KEY","CREDITCARD","TRANSITCARD","PHONE"]},{"station_id":"7072","name":"Queen St W / Shaw St","lat":43.644524,"lon":-79.416519,"address":"Queen St W / Shaw St","capacity":19,"rental_methods":["KEY","CREDITCARD","TRANSITCARD","PHONE"]},{"station_id":"7073","name":"Spadina Ave / Bremner Blvd","lat":43.640114,"lon":-79.393249,"address":"Spadina Ave / Bremner Blvd","capacity":15,"rental_methods":["KEY","CREDITCARD","TRANSITCARD","PHONE"]},{"station_id":"7074","name":"Spadina Ave / Sussex Ave","lat":43.664137,"lon":-79.402496,"address":"Spadina Ave / Sussex Ave","capacity":27,"rental_methods":["KEY","CREDITCARD","TRANSITCARD","PHONE"]},{"station_id":"7075","name":"Queens Quay W / Dan Leckie Way","lat":43.636533,"lon":-79.395854,"address":"Queens Quay W / Dan Leckie Way","capacity":27,"rental_methods":["KEY","CREDITCARD","TRANSITCARD","PHONE"]},{"station_id":"7076","name":"York St / Queens Quay W","lat":43.640132,"lon":-79.380464,"address":"York St / Queens Quay W","capacity":27,"rental_methods":["KEY","CREDITCARD","TRANSITCARD","PHONE"]},{"station_id":"7077","name":"College Park South","lat":43.659777,"lon":-79.382767,"address":"College Park South","capacity":19,"rental_methods":["KEY","CREDITCARD","TRANSITCARD","PHONE"]},{"station_id":"7078","name":"College St / Major St","lat":43.6576,"lon":-79.4032,"address":"College St / Major St","capacity":11,"rental_methods":["KEY","CREDITCARD","TRANSITCARD","PHONE"]},{"station_id":"7079","name":"McGill St / Church St","lat":43.660694,"lon":-79.379052,"address":"McGill St / Church St","capacity":19,"rental_methods":["KEY","CREDITCARD","TRANSITCARD","PHONE"]},{"station_id":"7083","name":"Danforth Ave / Barrington Ave","lat":43.688325,"lon":-79.300463,"address":"Danforth Ave / Barrington Ave","capacity":15,"rental_methods":["KEY","CREDITCARD","TRANSITCARD","PHONE"]},{"station_id":"7084","name":"Stephenson Ave / Main St","lat":43.68704,"lon":-79.301915,"address":"Stephenson Ave / Main St","capacity":15,"rental_methods":["KEY","CREDITCARD","TRANSITCARD","PHONE"]},{"station_id":"7085","name":"Danforth Ave / Westlake Ave","lat":43.687323,"lon":-79.304848,"address":"Danforth Ave / Westlake Ave","capacity":15,"rental_methods":["KEY","CREDITCARD","TRANSITCARD","PHONE"]},{"station_id":"7086","name":"Woodbine Subway Green P (Cedarvale Ave)","lat":43.686829,"lon":-79.311073,"address":"Woodbine Subway Green P (Cedarvale Ave)","capacity":19,"rental_methods":["KEY","CREDITCARD","TRANSITCARD","PHONE"]},{"station_id":"7087","name":"Danforth Ave / Aldridge Ave","lat":43.684758,"lon":-79.316767,"address":"Danforth Ave / Aldridge Ave","capacity":11,"rental_methods":["KEY","CREDITCARD","TRANSITCARD","PHONE"]},{"station_id":"7088","name":"Danforth Ave / Coxwell Ave","lat":43.683378,"lon":-79.322961,"address":"Danforth Ave / Coxwell Ave","capacity":15,"rental_methods":["KEY","CREDITCARD","TRANSITCARD","PHONE"]},{"station_id":"7089","name":"Church St  / Wood St","lat":43.662712,"lon":-79.379903,"address":"Church St / Wood St","capacity":19,"rental_methods":["KEY","CREDITCARD","TRANSITCARD","PHONE"]},{"station_id":"7090","name":"Danforth Ave / Lamb Ave","lat":43.681991,"lon":-79.329455,"address":"Danforth Ave / Lamb Ave","capacity":15,"rental_methods":["KEY","CREDITCARD","TRANSITCARD","PHONE"]},{"station_id":"7091","name":"Donlands Station","lat":43.681126,"lon":-79.337779,"address":"Donlands Station","capacity":11,"rental_methods":["KEY","CREDITCARD","TRANSITCARD","PHONE"]},{"station_id":"7092","name":"Pape Subway Green P","lat":43.680223,"lon":-79.344062,"address":"Pape Subway Green P","capacity":15,"rental_methods":["KEY","CREDITCARD","TRANSITCARD","PHONE"]},{"station_id":"7093","name":"Danforth Ave / Gough Ave","lat":43.678401,"lon":-79.346289,"address":"Danforth Ave / Gough Ave","capacity":17,"rental_methods":["KEY","CREDITCARD","TRANSITCARD","PHONE"]},{"station_id":"7094","name":"Chester Station","lat":43.678056,"lon":-79.352222,"address":"Chester Station","capacity":11,"rental_methods":["KEY","CREDITCARD","TRANSITCARD","PHONE"]},{"station_id":"7095","name":"Danforth Ave / Ellerbeck St","lat":43.677076,"lon":-79.35667,"address":"Danforth Ave / Ellerbeck St","capacity":14,"rental_methods":["KEY","CREDITCARD","TRANSITCARD","PHONE"]},{"station_id":"7096","name":"Boston Ave / Queen St E","lat":43.661508,"lon":-79.338931,"address":"Boston Ave / Queen St E","capacity":19,"rental_methods":["KEY","CREDITCARD","TRANSITCARD","PHONE"]},{"station_id":"7097","name":"Riverdale Park North (Broadview Ave)","lat":43.671172,"lon":-79.354704,"address":"Riverdale Park North (Broadview Ave)","capacity":15,"rental_methods":["KEY","CREDITCARD","TRANSITCARD","PHONE"]},{"station_id":"7098","name":"Riverdale Park South (Broadview Ave)","lat":43.667819,"lon":-79.35347,"address":"Riverdale Park South (Broadview Ave)","capacity":15,"rental_methods":["KEY","CREDITCARD","TRANSITCARD","PHONE"]},{"station_id":"7099","name":"Cherry St / Mill St","lat":43.651248,"lon":-79.357848,"address":"Cherry St / Mill St","capacity":15,"rental_methods":["KEY","CREDITCARD","TRANSITCARD","PHONE"]},{"station_id":"7100","name":"Dundas St E / Regent Park Blvd","lat":43.660207,"lon":-79.361275,"address":"Dundas St E / Regent Park Blvd","capacity":19,"rental_methods":["KEY","CREDITCARD","TRANSITCARD","PHONE"]},{"station_id":"7101","name":"Lower Sherbourne St / The Esplanade","lat":43.648655,"lon":-79.367061,"address":"Lower Sherbourne St / The Esplanade","capacity":27,"rental_methods":["KEY","CREDITCARD","TRANSITCARD","PHONE"]},{"station_id":"7102","name":"Nelson St / Duncan St","lat":43.648711,"lon":-79.389728,"address":"Nelson St / Duncan St","capacity":31,"rental_methods":["KEY","CREDITCARD","TRANSITCARD","PHONE"]},{"station_id":"7103","name":"Jimmie Simpson Park (Queen St E)","lat":43.660362,"lon":-79.343801,"address":"Jimmie Simpson Park (Queen St E)","capacity":11,"rental_methods":["KEY","CREDITCARD","TRANSITCARD","PHONE"]},{"station_id":"7104","name":"King St E / River St","lat":43.657071,"lon":-79.356598,"address":"King St E / River St","capacity":15,"rental_methods":["KEY","CREDITCARD","TRANSITCARD","PHONE"]},{"station_id":"7105","name":"Queen St E / Sackville St","lat":43.6561111,"lon":-79.36138888888888,"address":"Queen St E / Sackville St","capacity":15,"rental_methods":["KEY","CREDITCARD","TRANSITCARD","PHONE"]},{"station_id":"7106","name":"Mill St / Tannery Rd","lat":43.652219,"lon":-79.354455,"address":"Mill St / Tannery Rd","capacity":15,"rental_methods":["KEY","CREDITCARD","TRANSITCARD","PHONE"]},{"station_id":"7107","name":"Cherry St / Distillery Ln","lat":43.650279,"lon":-79.356832,"address":"Cherry St / Distillery Ln","capacity":15,"rental_methods":["KEY","CREDITCARD","TRANSITCARD","PHONE"]},{"station_id":"7108","name":"Front St E / Cherry St","lat":43.652686,"lon":-79.358395,"address":"Front St E / Cherry St","capacity":15,"rental_methods":["KEY","CREDITCARD","TRANSITCARD","PHONE"]},{"station_id":"7109","name":"Seaton St / Dundas St E","lat":43.658777,"lon":-79.369596,"address":"Seaton St / Dundas St E","capacity":11,"rental_methods":["KEY","CREDITCARD","TRANSITCARD","PHONE"]},{"station_id":"7110","name":"Queen St E / Berkeley St","lat":43.6552778,"lon":-79.36583333333333,"address":"Queen St E / Berkeley St","capacity":15,"rental_methods":["KEY","CREDITCARD","TRANSITCARD","PHONE"]},{"station_id":"7111","name":"King St W / Douro St","lat":43.640885,"lon":-79.416379,"address":"King St W / Douro St","capacity":11,"rental_methods":["KEY","CREDITCARD","TRANSITCARD","PHONE"]},{"station_id":"7112","name":"Liberty St / Fraser Ave Green P","lat":43.637981,"lon":-79.424146,"address":"Liberty St / Fraser Ave Green P","capacity":19,"rental_methods":["KEY","CREDITCARD","TRANSITCARD","PHONE"]},{"station_id":"7113","name":"Parliament St / Aberdeen Ave","lat":43.665278,"lon":-79.368333,"address":"Parliament St / Aberdeen Ave","capacity":15,"rental_methods":["KEY","CREDITCARD","TRANSITCARD","PHONE"]},{"station_id":"7114","name":"Carlton St / Parliament St","lat":43.664524,"lon":-79.36793,"address":"Carlton St / Parliament St","capacity":15,"rental_methods":["KEY","CREDITCARD","TRANSITCARD","PHONE"]},{"station_id":"7115","name":"Howard St / Sherbourne St","lat":43.6712581,"lon":-79.376367,"address":"Howard St / Sherbourne St","capacity":15,"rental_methods":["KEY","CREDITCARD","TRANSITCARD","PHONE"]},{"station_id":"7116","name":"Parliament St / Bloor St E","lat":43.671827,"lon":-79.371849,"address":"Parliament St / Bloor St E","capacity":15,"rental_methods":["KEY","CREDITCARD","TRANSITCARD","PHONE"]},{"station_id":"7117","name":"Castle Frank Station","lat":43.674083,"lon":-79.368579,"address":"Castle Frank Station","capacity":14,"rental_methods":["KEY","CREDITCARD","TRANSITCARD","PHONE"]},{"station_id":"7118","name":"King St W / Bay St (East Side)","lat":43.648575,"lon":-79.380042,"address":"King St W / Bay St (East Side)","capacity":19,"rental_methods":["KEY","CREDITCARD","TRANSITCARD","PHONE"]},{"station_id":"7119","name":"Sumach St / Carlton St. (Riverdale Farm)","lat":43.665867,"lon":-79.362506,"address":"Sumach St / Carlton St (Riverdale Farm)","capacity":14,"rental_methods":["KEY","CREDITCARD","TRANSITCARD","PHONE"]},{"station_id":"7120","name":"Gerrard St E / River St","lat":43.663993,"lon":-79.358534,"address":"Gerrard St E / River St","capacity":11,"rental_methods":["KEY","CREDITCARD","TRANSITCARD","PHONE"]},{"station_id":"7121","name":"Jarvis St / Dundas St E","lat":43.657266,"lon":-79.374756,"address":"Jarvis St / Dundas St E","capacity":15,"rental_methods":["KEY","CREDITCARD","TRANSITCARD","PHONE"]},{"station_id":"7122","name":"Niagara St / Tecumseth St","lat":43.641389,"lon":-79.404444,"address":"Niagara St / Tecumseth St","capacity":15,"rental_methods":["KEY","CREDITCARD","TRANSITCARD","PHONE"]},{"station_id":"7123","name":"424 Wellington St W","lat":43.643834,"lon":-79.396649,"address":"424 Wellington St W","capacity":15,"rental_methods":["KEY","CREDITCARD","TRANSITCARD","PHONE"]},{"station_id":"7124","name":"Dundas St E / Broadview Ave","lat":43.662365,"lon":-79.351104,"address":"Dundas St E / Broadview Ave","capacity":19,"rental_methods":["KEY","CREDITCARD","TRANSITCARD","PHONE"]},{"station_id":"7126","name":"Yonge St / Yorkville Ave","lat":43.671944,"lon":-79.387778,"address":"Yonge St / Yorkville Ave","capacity":17,"rental_methods":["KEY","CREDITCARD","TRANSITCARD","PHONE"]},{"station_id":"7127","name":"Bay St / Davenport Rd","lat":43.672829,"lon":-79.390592,"address":"Bay St / Davenport Rd","capacity":15,"rental_methods":["KEY","CREDITCARD","TRANSITCARD","PHONE"]},{"station_id":"7128","name":"Yonge St / Aylmer Ave","lat":43.675492,"lon":-79.388858,"address":"Yonge St / Aylmer Ave","capacity":15,"rental_methods":["KEY","CREDITCARD","TRANSITCARD","PHONE"]},{"station_id":"7129","name":"Davenport Rd / Avenue Rd","lat":43.674991,"lon":-79.396273,"address":"Davenport Rd / Avenue Rd","capacity":11,"rental_methods":["KEY","CREDITCARD","TRANSITCARD","PHONE"]},{"station_id":"7130","name":"Pears Av / Avenue Rd","lat":43.675481,"lon":-79.397359,"address":"Pears Av / Avenue Rd","capacity":11,"rental_methods":["KEY","CREDITCARD","TRANSITCARD","PHONE"]},{"station_id":"7131","name":"Taddle Creek Park","lat":43.66986,"lon":-79.398443,"address":"Taddle Creek Park","capacity":15,"rental_methods":["KEY","CREDITCARD","TRANSITCARD","PHONE"]},{"station_id":"7132","name":"Kendal Ave / Spadina Rd","lat":43.670318,"lon":-79.405181,"address":"Kendal Ave / Spadina Rd","capacity":9,"rental_methods":["KEY","CREDITCARD","TRANSITCARD","PHONE"]},{"station_id":"7133","name":"Summerhill Station","lat":43.681944,"lon":-79.390556,"address":"Summerhill Station","capacity":11,"rental_methods":["KEY","CREDITCARD","TRANSITCARD","PHONE"]},{"station_id":"7134","name":"Marlborough Ave / Yonge St","lat":43.68,"lon":-79.391111,"address":"Marlborough Ave / Yonge St","capacity":23,"rental_methods":["KEY","CREDITCARD","TRANSITCARD","PHONE"]},{"station_id":"7135","name":"Hanna Ave / Liberty St","lat":43.638333,"lon":-79.419722,"address":"Hanna Ave / Liberty St","capacity":15,"rental_methods":["KEY","CREDITCARD","TRANSITCARD","PHONE"]},{"station_id":"7136","name":"Queen St W / Close Ave","lat":43.640634,"lon":-79.435841,"address":"Queen St W / Close Ave","capacity":23,"rental_methods":["KEY","CREDITCARD","TRANSITCARD","PHONE"]},{"station_id":"7137","name":"Davenport Rd / Bathurst St","lat":43.676667,"lon":-79.416111,"address":"Davenport Rd / Bathurst St","capacity":15,"rental_methods":["KEY","CREDITCARD","TRANSITCARD","PHONE"]},{"station_id":"7138","name":"Davenport Rd / Christie St","lat":43.675278,"lon":-79.423889,"address":"Davenport Rd / Christie St","capacity":15,"rental_methods":["KEY","CREDITCARD","TRANSITCARD","PHONE"]},{"station_id":"7139","name":"Glen Edyth Dr / Davenport Rd","lat":43.677778,"lon":-79.405556,"address":"Glen Edyth Dr / Davenport Rd","capacity":15,"rental_methods":["KEY","CREDITCARD","TRANSITCARD","PHONE"]},{"station_id":"7140","name":"Macpherson Ave / Spadina Rd","lat":43.675791,"lon":-79.40698,"address":"Macpherson Ave / Spadina Rd","capacity":15,"rental_methods":["KEY","CREDITCARD","TRANSITCARD","PHONE"]},{"station_id":"7141","name":"Bridgeman Ave / Kendal Ave","lat":43.675556,"lon":-79.410278,"address":"Bridgeman Ave / Kendal Ave","capacity":15,"rental_methods":["KEY","CREDITCARD","TRANSITCARD","PHONE"]},{"station_id":"7142","name":"Bridgeman Ave / Bathurst St","lat":43.674444,"lon":-79.414722,"address":"Bridgeman Ave / Bathurst St","capacity":15,"rental_methods":["KEY","CREDITCARD","TRANSITCARD","PHONE"]},{"station_id":"7143","name":"Kendal Ave / Bernard Ave","lat":43.671513,"lon":-79.408317,"address":"Kendal Ave / Bernard Ave","capacity":15,"rental_methods":["KEY","CREDITCARD","TRANSITCARD","PHONE"]},{"station_id":"7144","name":"Palmerston Ave / Vermont Ave","lat":43.671389,"lon":-79.416389,"address":"Palmerston Ave / Vermont Ave","capacity":15,"rental_methods":["KEY","CREDITCARD","TRANSITCARD","PHONE"]},{"station_id":"7146","name":"Christie St / Benson Ave (Wychwood Barns)","lat":43.68,"lon":-79.42500000000001,"address":"Christie St / Benson Ave (Wychwood Barns)","capacity":19,"rental_methods":["KEY","CREDITCARD","TRANSITCARD","PHONE"]},{"station_id":"7147","name":"King St W / Fraser Ave","lat":43.6394444,"lon":-79.42527777777778,"address":"King St W / Fraser Ave","capacity":15,"rental_methods":["KEY","CREDITCARD","TRANSITCARD","PHONE"]},{"station_id":"7148","name":"King St W / Joe Shuster Way","lat":43.639444,"lon":-79.423611,"address":"King St W / Joe Shuster Way","capacity":15,"rental_methods":["KEY","CREDITCARD","TRANSITCARD","PHONE"]},{"station_id":"7149","name":"Yarmouth Rd / Christie St","lat":43.67,"lon":-79.42083333333333,"address":"Yarmouth Rd / Christie St","capacity":11,"rental_methods":["KEY","CREDITCARD","TRANSITCARD","PHONE"]},{"station_id":"7150","name":"Dufferin St / Sylvan Av (Dufferin Grove Park)","lat":43.6555556,"lon":-79.43361111111112,"address":"Dufferin St / Sylvan Av (Dufferin Grove Park)","capacity":19,"rental_methods":["KEY","CREDITCARD","TRANSITCARD","PHONE"]},{"station_id":"7151","name":"Essex St / Christie St","lat":43.6686111,"lon":-79.42027777777778,"address":"Essex St / Christie St","capacity":19,"rental_methods":["KEY","CREDITCARD","TRANSITCARD","PHONE"]},{"station_id":"7152","name":"Ossington Ave / Bloor St W","lat":43.661705,"lon":-79.425734,"address":"Ossington Ave / Bloor St W","capacity":11,"rental_methods":["KEY","CREDITCARD","TRANSITCARD","PHONE"]},{"station_id":"7153","name":"Bloor St W / Christie St","lat":43.6638889,"lon":-79.41888888888889,"address":"Bloor St W / Christie St","capacity":19,"rental_methods":["KEY","CREDITCARD","TRANSITCARD","PHONE"]},{"station_id":"7154","name":"Bathurst Subway Station","lat":43.6666667,"lon":-79.41166666666668,"address":"Bathurst Subway Station","capacity":23,"rental_methods":["KEY","CREDITCARD","TRANSITCARD","PHONE"]},{"station_id":"7155","name":"Bathurst St / Lennox St","lat":43.663808,"lon":-79.410491,"address":"Bathurst St / Lennox St","capacity":19,"rental_methods":["KEY","CREDITCARD","TRANSITCARD","PHONE"]},{"station_id":"7156","name":"Salem Ave / Bloor St W","lat":43.6608333,"lon":-79.43166666666667,"address":"Salem Ave / Bloor St W","capacity":15,"rental_methods":["KEY","CREDITCARD","TRANSITCARD","PHONE"]},{"station_id":"7157","name":"Dufferin St / Bloor St","lat":43.66083333333333,"lon":-79.43583333333333,"address":"Dufferin St / Bloor St","capacity":15,"rental_methods":["KEY","CREDITCARD","TRANSITCARD","PHONE"]},{"station_id":"7158","name":"King St W / Stafford St","lat":43.6422222,"lon":-79.41111111111111,"address":"King St W / Stafford St","capacity":15,"rental_methods":["KEY","CREDITCARD","TRANSITCARD","PHONE"]},{"station_id":"7160","name":"King St W / Tecumseth St","lat":43.64333333333333,"lon":-79.40555555555557,"address":"King St W / Tecumseth St","capacity":15,"rental_methods":["KEY","CREDITCARD","TRANSITCARD","PHONE"]},{"station_id":"7161","name":"Beverly St / College St","lat":43.6575,"lon":-79.39527777777778,"address":"Beverly St / College St","capacity":23,"rental_methods":["KEY","CREDITCARD","TRANSITCARD","PHONE"]},{"station_id":"7162","name":"Hayter St / Laplante Ave","lat":43.6591666666667,"lon":-79.3855555555556,"address":"Hayter St / Laplante Ave","capacity":15,"rental_methods":["KEY","CREDITCARD","TRANSITCARD","PHONE"]},{"station_id":"7163","name":"Yonge St / Wood St","lat":43.6622222,"lon":-79.3825,"address":"Yonge St / Wood St","capacity":15,"rental_methods":["KEY","CREDITCARD","TRANSITCARD","PHONE"]},{"station_id":"7164","name":"Victoria St / Gould St (Ryerson University)","lat":43.657189,"lon":-79.379953,"address":"Victoria St / Gould St (Ryerson University)","capacity":19,"rental_methods":["KEY","CREDITCARD","TRANSITCARD","PHONE"]},{"station_id":"7167","name":"Queen St E / George St (Moss Park)","lat":43.6544444,"lon":-79.3711111111111,"address":"Queen St E / George St (Moss Park)","capacity":17,"rental_methods":["KEY","CREDITCARD","TRANSITCARD","PHONE"]},{"station_id":"7168","name":"Queens Quay / Yonge St","lat":43.641646,"lon":-79.375308,"address":"Queens Quay / Yonge St","capacity":15,"rental_methods":["KEY","CREDITCARD","TRANSITCARD","PHONE"]},{"station_id":"7169","name":"Front St W / Bay St (North Side)","lat":43.646162,"lon":-79.378912,"address":"Front St W / Bay St (North Side)","capacity":11,"rental_methods":["KEY","CREDITCARD","TRANSITCARD","PHONE"]},{"station_id":"7170","name":"Spadina Ave / Willcocks St","lat":43.6616667,"lon":-79.40138888888889,"address":"Spadina Ave / Willcocks St","capacity":15,"rental_methods":["KEY","CREDITCARD","TRANSITCARD","PHONE"]},{"station_id":"7171","name":"Ontario Place Blvd / Remembrance Dr","lat":43.632999,"lon":-79.408671,"address":"Ontario Place Blvd / Remembrance Dr","capacity":27,"rental_methods":["KEY","CREDITCARD","TRANSITCARD","PHONE"]},{"station_id":"7172","name":"Strachan Ave / Princes' Blvd","lat":43.635,"lon":-79.4088888888889,"address":"Strachan Ave / Princes' Blvd","capacity":19,"rental_methods":["KEY","CREDITCARD","TRANSITCARD","PHONE"]},{"station_id":"7173","name":"Cariboo St / Rail Path","lat":43.66666667,"lon":-79.45833333333334,"address":"Cariboo St / Rail Path","capacity":19,"rental_methods":["KEY","CREDITCARD","TRANSITCARD","PHONE"]},{"station_id":"7174","name":"Bloor St W / Dundas St W","lat":43.6563889,"lon":-79.45166666666667,"address":"Bloor St W / Dundas St W","capacity":15,"rental_methods":["KEY","CREDITCARD","TRANSITCARD","PHONE"]},{"station_id":"7175","name":"HTO Park (Queens Quay W)","lat":43.63796,"lon":-79.387502,"address":"HTO Park (Queens Quay W)","capacity":27,"rental_methods":["KEY","CREDITCARD","TRANSITCARD","PHONE"]},{"station_id":"7176","name":"Bathurst St / Fort York Blvd","lat":43.639179,"lon":-79.399595,"address":"Bathurst St / Fort York Blvd","capacity":19,"rental_methods":["KEY","CREDITCARD","TRANSITCARD","PHONE"]},{"station_id":"7177","name":"East Liberty St / Pirandello St","lat":43.6386111111111,"lon":-79.4147222222222,"address":"East Liberty St / Pirandello St","capacity":19,"rental_methods":["KEY","CREDITCARD","TRANSITCARD","PHONE"]},{"station_id":"7178","name":"Dundas St W / Edna Ave","lat":43.657192,"lon":-79.452559,"address":"Dundas St W / Edna Ave","capacity":15,"rental_methods":["KEY","CREDITCARD","TRANSITCARD","PHONE"]},{"station_id":"7179","name":"Bloor GO / UP Station (West Toronto Railpath)","lat":43.6575,"lon":-79.4502777777778,"address":"Bloor GO / UP Station (West Toronto Railpath)","capacity":19,"rental_methods":["KEY","CREDITCARD","TRANSITCARD","PHONE"]},{"station_id":"7180","name":"Lansdowne Subway Green P","lat":43.6591666666667,"lon":-79.4427777777778,"address":"Lansdowne Subway Green P","capacity":23,"rental_methods":["KEY","CREDITCARD","TRANSITCARD","PHONE"]},{"station_id":"7181","name":"Lansdowne Ave / Whytock Ave","lat":43.6538888888889,"lon":-79.4413888888889,"address":"Lansdowne Ave / Whytock Ave","capacity":15,"rental_methods":["KEY","CREDITCARD","TRANSITCARD","PHONE"]},{"station_id":"7182","name":"Sterling Rd / Dundas St W","lat":43.6508333333333,"lon":-79.4430555555556,"address":"Sterling Rd / Dundas St W","capacity":19,"rental_methods":["KEY","CREDITCARD","TRANSITCARD","PHONE"]},{"station_id":"7183","name":"Margueretta St / College St","lat":43.6513888888889,"lon":-79.4377777777778,"address":"Margueretta St / College St","capacity":15,"rental_methods":["KEY","CREDITCARD","TRANSITCARD","PHONE"]},{"station_id":"7184","name":"Ossington Ave / College St","lat":43.6544915,"lon":-79.422634,"address":"Ossington Ave / College St","capacity":11,"rental_methods":["KEY","CREDITCARD","TRANSITCARD","PHONE"]},{"station_id":"7188","name":"Exhibition GO (Atlantic Ave)","lat":43.6366666666667,"lon":-79.4197222222222,"address":"Exhibition GO (Atlantic Ave)","capacity":23,"rental_methods":["KEY","CREDITCARD","TRANSITCARD","PHONE"]},{"station_id":"7189","name":"Augusta Ave / Denison Sq","lat":43.65375,"lon":-79.401753,"address":"Augusta Ave / Denison Sq","capacity":15,"rental_methods":["KEY","CREDITCARD","TRANSITCARD","PHONE"]},{"station_id":"7190","name":"St. George St / Hoskin Ave","lat":43.664059,"lon":-79.398334,"address":"St. George St / Hoskin Ave","capacity":15,"rental_methods":["KEY","CREDITCARD","TRANSITCARD","PHONE"]},{"station_id":"7191","name":"Central Tech  (Harbord St)","lat":43.661975,"lon":-79.407896,"address":"Central Tech (Harbord St)","capacity":11,"rental_methods":["KEY","CREDITCARD","TRANSITCARD","PHONE"]},{"station_id":"7192","name":"Harbord St / Clinton St","lat":43.660414,"lon":-79.415646,"address":"Harbord St / Clinton St","capacity":15,"rental_methods":["KEY","CREDITCARD","TRANSITCARD","PHONE"]},{"station_id":"7193","name":"Queen St W / Gladstone Ave","lat":43.6430555555556,"lon":-79.4275,"address":"Queen St W / Gladstone Ave","capacity":15,"rental_methods":["KEY","CREDITCARD","TRANSITCARD","PHONE"]},{"station_id":"7194","name":"Mortimer Ave / Coxwell Ave","lat":43.690564,"lon":-79.326319,"address":"Mortimer Ave / Coxwell Ave","capacity":11,"rental_methods":["KEY","CREDITCARD","TRANSITCARD","PHONE"]},{"station_id":"7195","name":"Ulster St / Bathurst St","lat":43.66,"lon":-79.4088888888889,"address":"Ulster St / Bathurst St","capacity":11,"rental_methods":["KEY","CREDITCARD","TRANSITCARD","PHONE"]},{"station_id":"7196","name":"Roxton Rd / Harbord St","lat":43.65905,"lon":-79.422988,"address":"Roxton Rd / Harbord St","capacity":11,"rental_methods":["KEY","CREDITCARD","TRANSITCARD","PHONE"]},{"station_id":"7197","name":"Queen St W / Dovercourt Rd","lat":43.6436111111111,"lon":-79.4225,"address":"Queen St W / Dovercourt Rd","capacity":11,"rental_methods":["KEY","CREDITCARD","TRANSITCARD","PHONE"]},{"station_id":"7198","name":"Queen St W / Cowan Ave","lat":43.6409,"lon":-79.432837,"address":"Queen St W / Cowan Ave","capacity":19,"rental_methods":["KEY","CREDITCARD","TRANSITCARD","PHONE"]},{"station_id":"7199","name":"College St / Markham St","lat":43.6563888888889,"lon":-79.4091666666667,"address":"College St / Markham St","capacity":19,"rental_methods":["KEY","CREDITCARD","TRANSITCARD","PHONE"]},{"station_id":"7202","name":"Queen St W / York St (City Hall)","lat":43.651667,"lon":-79.384167,"address":"Queen St W / York St (City Hall)","capacity":23,"rental_methods":["KEY","CREDITCARD","TRANSITCARD","PHONE"]},{"station_id":"7203","name":"Bathurst St/Queens Quay(Billy Bishop Airport)","lat":43.635492,"lon":-79.398253,"address":"Bathurst St/Queens Quay(Billy Bishop Airport)","capacity":35,"rental_methods":["KEY","CREDITCARD","TRANSITCARD","PHONE"]},{"station_id":"7204","name":"College St / Crawford St","lat":43.655,"lon":-79.418889,"address":"College St / Crawford St","capacity":19,"rental_methods":["KEY","CREDITCARD","TRANSITCARD","PHONE"]},{"station_id":"7205","name":"Rusholme Park Cres / College St","lat":43.65277778,"lon":-79.42972222,"address":"Rusholme Park Cres / College St","capacity":15,"rental_methods":["KEY","CREDITCARD","TRANSITCARD","PHONE"]},{"station_id":"7206","name":"Claremont St / Dundas St W","lat":43.651281,"lon":-79.411717,"address":"Claremont St / Dundas St W","capacity":13,"rental_methods":["KEY","CREDITCARD","TRANSITCARD","PHONE"]},{"station_id":"7207","name":"Dundas St W / Crawford St","lat":43.649722,"lon":-79.416944,"address":"Dundas St W / Crawford St","capacity":19,"rental_methods":["KEY","CREDITCARD","TRANSITCARD","PHONE"]},{"station_id":"7208","name":"80 Clinton St (North of College)","lat":43.656296,"lon":-79.414663,"address":"80 Clinton St (North of College)","capacity":11,"rental_methods":["KEY","CREDITCARD","TRANSITCARD","PHONE"]},{"station_id":"7209","name":"Ossington Ave / Harrison St","lat":43.651111111111106,"lon":-79.4213888888889,"address":"Ossington Ave / Harrison St","capacity":19,"rental_methods":["KEY","CREDITCARD","TRANSITCARD","PHONE"]},{"station_id":"7210","name":"Mary McCormick Rec Centre (Sheridan Ave)","lat":43.6475,"lon":-79.43305555555555,"address":"Mary McCormick Rec Centre (Sheridan Ave)","capacity":15,"rental_methods":["KEY","CREDITCARD","TRANSITCARD","PHONE"]},{"station_id":"7211","name":"Fort York Blvd / Garrison Rd","lat":43.6375,"lon":-79.40611111111112,"address":"Fort York Blvd / Garrison Rd","capacity":15,"rental_methods":["KEY","CREDITCARD","TRANSITCARD","PHONE"]},{"station_id":"7216","name":"Wellington St W / Stafford St","lat":43.641281,"lon":-79.409339,"address":"Wellington St W / Stafford St","capacity":23,"rental_methods":["KEY","CREDITCARD","TRANSITCARD","PHONE"]},{"station_id":"7220","name":"Lakeshore Blvd W / Ellis Ave","lat":43.635932,"lon":-79.465083,"address":"Lakeshore Blvd W / Ellis Ave","capacity":19,"rental_methods":["KEY","CREDITCARD","TRANSITCARD","PHONE"]},{"station_id":"7221","name":"High Park Subway Station","lat":43.6543604,"lon":-79.4655296,"address":"High Park Subway Station","capacity":19,"rental_methods":["KEY","CREDITCARD","TRANSITCARD","PHONE"]},{"station_id":"7222","name":"Sunnyside - Gus Ryder Pool","lat":43.637894,"lon":-79.454823,"address":"Sunnyside - Gus Ryder Pool","capacity":23,"rental_methods":["KEY","CREDITCARD","TRANSITCARD","PHONE"]},{"station_id":"7223","name":"Parkside Dr / Bloor St W - SMART","lat":43.654501,"lon":-79.460053,"address":"Parkside Dr / Bloor St W","capacity":12,"rental_methods":["KEY","CREDITCARD","TRANSITCARD","PHONE"]},{"station_id":"7224","name":"Bloor St W / High Park Ave (High Park)","lat":43.6535269,"lon":-79.4650569,"address":"Bloor St W / High Park Ave (High Park)","capacity":18,"rental_methods":["KEY","CREDITCARD","TRANSITCARD","PHONE"]},{"station_id":"7225","name":"Lakeshore Blvd W / Windermere Ave","lat":43.634896,"lon":-79.467763,"address":"Lakeshore Blvd W / Windermere Ave","capacity":19,"rental_methods":["KEY","CREDITCARD","TRANSITCARD","PHONE"]},{"station_id":"7226","name":"Lakeshore Blvd W / The Boulevard Club","lat":43.636731,"lon":-79.444966,"address":"Lakeshore Blvd W / The Boulevard Club","capacity":19,"rental_methods":["KEY","CREDITCARD","TRANSITCARD","PHONE"]},{"station_id":"7227","name":"Martin Goodman Trail (Marilyn Bell Park)","lat":43.6314,"lon":-79.4304,"address":"Martin Goodman Trail (Marilyn Bell Park)","capacity":15,"rental_methods":["KEY","CREDITCARD","TRANSITCARD","PHONE"]},{"station_id":"7228","name":"Queen St W / Roncesvalles Ave","lat":43.638399,"lon":-79.4464436,"address":"Queen St W / Roncesvalles Ave","capacity":19,"rental_methods":["KEY","CREDITCARD","TRANSITCARD","PHONE"]},{"station_id":"7229","name":"Dundas St W / Roncesvalles Green P - SMART","lat":43.6534268,"lon":-79.4512787,"address":"Dundas St W / Roncesvalles Green P","capacity":12,"rental_methods":["KEY","CREDITCARD","TRANSITCARD","PHONE"]},{"station_id":"7230","name":"Garden Ave / Roncesvalles Ave","lat":43.643769,"lon":-79.447915,"address":"Garden Ave / Roncesvalles Ave","capacity":19,"rental_methods":["KEY","CREDITCARD","TRANSITCARD","PHONE"]},{"station_id":"7231","name":"Wright / Sorauren (Sorauren Park) - SMART","lat":43.646677,"lon":-79.442741,"address":"Wright Ave / Sorauren St (Sorauren Park)","capacity":18,"rental_methods":["KEY","CREDITCARD","TRANSITCARD","PHONE"]},{"station_id":"7232","name":"Queen St W  /  Fuller Ave - SMART","lat":43.640255,"lon":-79.439223,"address":"Queen St W / Fuller Ave","capacity":16,"rental_methods":["KEY","CREDITCARD","TRANSITCARD","PHONE"]},{"station_id":"7233","name":"King / Cowan Ave - SMART","lat":43.637922,"lon":-79.431734,"address":"King St W / Cowan Ave","capacity":16,"rental_methods":["KEY","CREDITCARD","TRANSITCARD","PHONE"]},{"station_id":"7234","name":"Roncesvalles Ave / Marmaduke St","lat":43.650492,"lon":-79.450842,"address":"Roncesvalles Ave / Marmaduke St","capacity":19,"rental_methods":["KEY","CREDITCARD","TRANSITCARD","PHONE"]},{"station_id":"7235","name":"Bay St / College St (West Side) - SMART","lat":43.660087,"lon":-79.385655,"address":"Bay St / College St (West Side)","capacity":12,"rental_methods":["KEY","CREDITCARD","TRANSITCARD","PHONE"]},{"station_id":"7236","name":"Thompson St / Broadview Ave - SMART","lat":43.659471,"lon":-79.350325,"address":"Thompson St / Broadview Ave","capacity":12,"rental_methods":["KEY","CREDITCARD","TRANSITCARD","PHONE"]},{"station_id":"7237","name":"Ward Ave / Wallace Ave","lat":43.662251,"lon":-79.446036,"address":"Ward Ave / Wallace Ave","capacity":15,"rental_methods":["KEY","CREDITCARD","TRANSITCARD","PHONE"]},{"station_id":"7238","name":"Sorauren/Geoffrey (Sorauren Park) - SMART","lat":43.649172,"lon":-79.4445087,"address":"Sorauren St / Geoffrey St (Sorauren Park)","capacity":16,"rental_methods":["KEY","CREDITCARD","TRANSITCARD","PHONE"]},{"station_id":"7239","name":"Bloor St W / Manning Ave - SMART","lat":43.663912,"lon":-79.416124,"address":"Bloor St W / Manning Ave","capacity":20,"rental_methods":["KEY","CREDITCARD","TRANSITCARD","PHONE"]},{"station_id":"7240","name":"Bloor St W / Shaw Ave - SMART","lat":43.662403,"lon":-79.423098,"address":"Bloor St W / Shaw Ave","capacity":12,"rental_methods":["KEY","CREDITCARD","TRANSITCARD","PHONE"]},{"station_id":"7241","name":"519 Church St - SMART","lat":43.666805,"lon":-79.381288,"address":"519 Church St","capacity":12,"rental_methods":["KEY","CREDITCARD","TRANSITCARD","PHONE"]},{"station_id":"7242","name":"Lakeshore Blvd W / Ontario Dr (Ontario Place)","lat":43.630254,"lon":-79.420317,"address":"Lakeshore Blvd W / Ontario Dr (Ontario Place)","capacity":23,"rental_methods":["KEY","CREDITCARD","TRANSITCARD","PHONE"]},{"station_id":"7243","name":"Exhibition GO Station","lat":43.6356551,"lon":-79.4184785,"address":"Exhibition GO Station","capacity":15,"rental_methods":["KEY","CREDITCARD","TRANSITCARD","PHONE"]},{"station_id":"7244","name":"Dufferin Gate - SMART","lat":43.633473,"lon":-79.425679,"address":"Dufferin Gate","capacity":16,"rental_methods":["KEY","CREDITCARD","TRANSITCARD","PHONE"]},{"station_id":"7245","name":"Tecumseth St / Queen St W - SMART","lat":43.646552,"lon":-79.406468,"address":"Tecumseth St / Queen St W","capacity":9,"rental_methods":["KEY","CREDITCARD","TRANSITCARD","PHONE"]},{"station_id":"7246","name":"Yonge St / Bloor St","lat":43.669969,"lon":-79.386532,"address":"Yonge St / Bloor St","capacity":14,"rental_methods":["KEY","CREDITCARD","TRANSITCARD","PHONE"]},{"station_id":"7247","name":"Howard Park Ave / Dundas St W - SMART","lat":43.6521,"lon":-79.4486,"address":"Howard Park Ave / Dundas St W","capacity":12,"rental_methods":["KEY","CREDITCARD","TRANSITCARD","PHONE"]},{"station_id":"7248","name":"Baldwin Ave / Spadina Ave - SMART","lat":43.654905,"lon":-79.398448,"address":"Baldwin Ave / Spadina Ave","capacity":20,"rental_methods":["KEY","CREDITCARD","TRANSITCARD","PHONE"]},{"station_id":"7249","name":"Dovercourt Rd / Harrison St (Green P) - SMART","lat":43.651145,"lon":-79.423742,"address":"Dovercourt Rd / Harrison St (Green P) - SMART","capacity":12,"rental_methods":["KEY","CREDITCARD","TRANSITCARD","PHONE"]},{"station_id":"7250","name":"St. George St / Russell St - SMART","lat":43.660296,"lon":-79.397107,"address":"St. George St / Russell St","capacity":12,"rental_methods":["KEY","CREDITCARD","TRANSITCARD","PHONE"]},{"station_id":"7251","name":"The Royal Ontario Museum (Bloor St Entrance)","lat":43.668561,"lon":-79.394403,"address":"The Royal Ontario Museum (Bloor St Entrance)","capacity":19,"rental_methods":["KEY","CREDITCARD","TRANSITCARD","PHONE"]},{"station_id":"7252","name":"Robert St / Bloor St W - SMART","lat":43.665846,"lon":-79.404998,"address":"Robert St / Bloor St W","capacity":18,"rental_methods":["KEY","CREDITCARD","TRANSITCARD","PHONE"]},{"station_id":"7253","name":"John St  / Mercer St - SMART","lat":43.6461,"lon":-79.3895,"address":"John St / Mercer St","capacity":12,"rental_methods":["KEY","CREDITCARD","TRANSITCARD","PHONE"]},{"station_id":"7254","name":"Borden St / Bloor St W - SMART","lat":43.665461,"lon":-79.40848,"address":"Borden St / Bloor St W","capacity":12,"rental_methods":["KEY","CREDITCARD","TRANSITCARD","PHONE"]},{"station_id":"7255","name":"Stewart St / Bathurst St  - SMART","lat":43.643307,"lon":-79.402176,"address":"Stewart St / Bathurst St","capacity":16,"rental_methods":["KEY","CREDITCARD","TRANSITCARD","PHONE"]},{"station_id":"7256","name":"Vanauley St / Queen St W - SMART","lat":43.648437,"lon":-79.39838,"address":"Vanauley St / Queen St W","capacity":9,"rental_methods":["KEY","CREDITCARD","TRANSITCARD","PHONE"]},{"station_id":"7257","name":"Dundas St W / St. Patrick St","lat":43.6545174,"lon":-79.3895315,"address":"Dundas St W / St. Patrick St","capacity":19,"rental_methods":["KEY","CREDITCARD","TRANSITCARD","PHONE"]},{"station_id":"7258","name":"Queen St E / Larchmount Ave","lat":43.662279,"lon":-79.334166,"address":"Queen St E / Larchmount Ave","capacity":25,"rental_methods":["KEY","CREDITCARD","TRANSITCARD","PHONE"]},{"station_id":"7259","name":"Lower Spadina Ave / Lakeshore Blvd","lat":43.638497,"lon":-79.39192,"address":"Lower Spadina Ave / Lakeshore Blvd W","capacity":19,"rental_methods":["KEY","CREDITCARD","TRANSITCARD","PHONE"]},{"station_id":"7260","name":"Spadina Ave / Adelaide St W","lat":43.646688,"lon":-79.395267,"address":"Spadina Ave / Adelaide St W","capacity":15,"rental_methods":["KEY","CREDITCARD","TRANSITCARD","PHONE"]},{"station_id":"7262","name":"Wychwood Ave / Benson Ave - SMART","lat":43.6809164,"lon":-79.4229684,"address":"Wychwood Ave / Benson Ave","capacity":16,"rental_methods":["KEY","CREDITCARD","TRANSITCARD","PHONE"]},{"station_id":"7263","name":"Walton St / Elizabeth St - SMART","lat":43.657838,"lon":-79.38631,"address":"Walton St / Elizabeth St","post_code":"M8Z4T4","capacity":20,"rental_methods":["KEY","CREDITCARD","TRANSITCARD","PHONE"]},{"station_id":"7264","name":"Bloor St E / Huntley St - SMART","lat":43.671535,"lon":-79.379173,"address":"Bloor St E / Huntley St","capacity":16,"rental_methods":["KEY","CREDITCARD","TRANSITCARD","PHONE"]},{"station_id":"7265","name":"Wallace Ave / Symington Ave - SMART","lat":43.661324,"lon":-79.449534,"address":"Wallace Ave / Symington Ave","capacity":12,"rental_methods":["KEY","CREDITCARD","TRANSITCARD","PHONE"]},{"station_id":"7266","name":"Victoria Park Subway Station - SMART","lat":43.6940155,"lon":-79.2889842,"address":"Victoria Park Subway Station","capacity":20,"rental_methods":["KEY","CREDITCARD","TRANSITCARD","PHONE"]},{"station_id":"7267","name":"Dundas St E / Pembroke St - SMART","lat":43.658295,"lon":-79.372346,"address":"Dundas St E / Pembroke St","capacity":16,"rental_methods":["KEY","CREDITCARD","TRANSITCARD","PHONE"]},{"station_id":"7268","name":"111 Bond St (North of Dundas St E)  - SMART","lat":43.656927,"lon":-79.378497,"address":"111 Bond St (North of Dundas St E)","capacity":16,"rental_methods":["KEY","CREDITCARD","TRANSITCARD","PHONE"]},{"station_id":"7269","name":"Toronto Eaton Centre (Yonge St)","lat":43.655431,"lon":-79.380653,"address":"Toronto Eaton Centre (Yonge St)","capacity":14,"rental_methods":["KEY","CREDITCARD","TRANSITCARD","PHONE"]},{"station_id":"7270","name":"Church St / Dundas St E - SMART","lat":43.657024,"lon":-79.377257,"address":"Church St / Dundas St E","capacity":15,"rental_methods":["KEY","CREDITCARD","TRANSITCARD","PHONE"]},{"station_id":"7271","name":"Yonge St / Alexander St - SMART","lat":43.662862,"lon":-79.383572,"address":"Yonge St / Alexander St","capacity":8,"rental_methods":["KEY","CREDITCARD","TRANSITCARD","PHONE"]},{"station_id":"7272","name":"Yonge St / Dundonald St - SMART","lat":43.665801,"lon":-79.384796,"address":"Yonge St / Dundonald St","capacity":12,"rental_methods":["KEY","CREDITCARD","TRANSITCARD","PHONE"]},{"station_id":"7273","name":"Bay St / Charles St - SMART","lat":43.668153,"lon":-79.38891,"address":"Bay St / Charles St W","capacity":20,"rental_methods":["KEY","CREDITCARD","TRANSITCARD","PHONE"]},{"station_id":"7274","name":"Queen's Park Cres E / Grosvenor St - SMART","lat":43.661803,"lon":-79.389682,"address":"Queen's Park Cres E / Grosvenor St","capacity":12,"rental_methods":["KEY","CREDITCARD","TRANSITCARD","PHONE"]},{"station_id":"7275","name":"Queen St W / James St","lat":43.652276,"lon":-79.380701,"address":"Queen St W / James St","capacity":11,"rental_methods":["KEY","CREDITCARD","TRANSITCARD","PHONE"]},{"station_id":"7276","name":"Bloor St W / Balmuto St","lat":43.669903,"lon":-79.387802,"address":"Bloor St W / Balmuto St","capacity":11,"rental_methods":["KEY","CREDITCARD","TRANSITCARD","PHONE"]},{"station_id":"7277","name":"Chorley Park - SMART","lat":43.6856,"lon":-79.3718,"address":"Chorley Park","capacity":12,"rental_methods":["KEY","CREDITCARD","TRANSITCARD","PHONE"]},{"station_id":"7278","name":"Summerhill Ave / MacLennan Ave - SMART","lat":43.6859,"lon":-79.3766,"address":"Summerhill Ave / MacLennan Ave","capacity":12,"rental_methods":["KEY","CREDITCARD","TRANSITCARD","PHONE"]},{"station_id":"7279","name":"Rosehill Ave / Avoca Ave - SMART","lat":43.687999,"lon":-79.38906,"address":"Rosehill Ave / Avoca Ave","capacity":16,"rental_methods":["KEY","CREDITCARD","TRANSITCARD","PHONE"]},{"station_id":"7280","name":"Charles St E / Jarvis St - SMART","lat":43.669604,"lon":-79.381171,"address":"Charles St E / Jarvis St","capacity":16,"rental_methods":["KEY","CREDITCARD","TRANSITCARD","PHONE"]},{"station_id":"7281","name":"Charles St W / Balmuto St - SMART","lat":43.668427,"lon":-79.38725,"address":"Charles St W / Balmuto St","capacity":16,"rental_methods":["KEY","CREDITCARD","TRANSITCARD","PHONE"]},{"station_id":"7282","name":"Adelaide St W / Bay St - SMART","lat":43.650152,"lon":-79.379856,"address":"Adelaide St W / Bay St","capacity":20,"rental_methods":["KEY","CREDITCARD","TRANSITCARD","PHONE"]},{"station_id":"7283","name":"Front St W / Bay St (South Side)","lat":43.64595,"lon":-79.378761,"address":"Front St W / Bay St (South Side)","capacity":19,"rental_methods":["KEY","CREDITCARD","TRANSITCARD","PHONE"]},{"station_id":"7284","name":"York St / King St W - SMART","lat":43.648,"lon":-79.3834,"address":"York St / King St W","capacity":16,"rental_methods":["KEY","CREDITCARD","TRANSITCARD","PHONE"]},{"station_id":"7285","name":"Spadina Ave / Harbord St - SMART","lat":43.6629228,"lon":-79.4018451,"address":"Spadina Ave / Harbord St","capacity":12,"rental_methods":["KEY","CREDITCARD","TRANSITCARD","PHONE"]},{"station_id":"7286","name":"Gerrard St E / Broadview - SMART","lat":43.665656,"lon":-79.352055,"address":"Gerrard St E / Broadview","capacity":18,"rental_methods":["KEY","CREDITCARD","TRANSITCARD","PHONE"]},{"station_id":"7287","name":"Queen St E / Pape Ave - SMART","lat":43.661673,"lon":-79.337789,"address":"Queen St E / Pape Ave","capacity":8,"rental_methods":["KEY","CREDITCARD","TRANSITCARD","PHONE"]},{"station_id":"7288","name":"Humber Bay Shores Park West","lat":43.626705,"lon":-79.476571,"address":"Humber Bay Shores Park West","capacity":23,"rental_methods":["KEY","CREDITCARD","TRANSITCARD","PHONE"]},{"station_id":"7289","name":"Humber Bay Shores Park East","lat":43.629742,"lon":-79.474627,"address":"Humber Bay Shores Park East","capacity":23,"rental_methods":["KEY","CREDITCARD","TRANSITCARD","PHONE"]},{"station_id":"7291","name":"Lakeshore Blvd E / Parliament St","lat":43.647562,"lon":-79.36138,"address":"Lakeshore Blvd E / Parliament St","capacity":15,"rental_methods":["KEY","CREDITCARD","TRANSITCARD","PHONE"]},{"station_id":"7292","name":"Granby St / Church St - SMART","lat":43.6605302,"lon":-79.3787235,"address":"Granby St / Church St -SMART","capacity":12,"rental_methods":["KEY","CREDITCARD","TRANSITCARD","PHONE"]},{"station_id":"7293","name":"College St / McCaul St","lat":43.65906,"lon":-79.393771,"address":"College St / McCaul St","capacity":17,"rental_methods":["KEY","CREDITCARD","TRANSITCARD","PHONE"]},{"station_id":"7296","name":"Westmoreland Ave / Fernbank Ave","lat":43.665327,"lon":-79.43235,"address":"Westmoreland Ave / Fernbank Ave","capacity":19,"rental_methods":["KEY","CREDITCARD","TRANSITCARD","PHONE"]},{"station_id":"7297","name":"Havelock St / Dufferin Park","lat":43.657343,"lon":-79.43112,"address":"Havelock St / Dufferin Park","capacity":19,"rental_methods":["KEY","CREDITCARD","TRANSITCARD","PHONE"]},{"station_id":"7298","name":"Bathurst St / Adelaide St W","lat":43.645324,"lon":-79.40345,"address":"Bathurst St / Adelaide St W","capacity":25,"rental_methods":["KEY","CREDITCARD","TRANSITCARD","PHONE"]},{"station_id":"7299","name":"Mill St / Parliament St","lat":43.650256,"lon":-79.36163,"address":"Mill St / Parliament St","capacity":15,"rental_methods":["KEY","CREDITCARD","TRANSITCARD","PHONE"]},{"station_id":"7301","name":"Primrose Ave / Davenport Rd","lat":43.67142,"lon":-79.445947,"address":"Primrose Ave / Davenport Rd","capacity":15,"rental_methods":["KEY","CREDITCARD","TRANSITCARD","PHONE"]},{"station_id":"7302","name":"Winona Dr / Davenport Rd","lat":43.674923,"lon":-79.430465,"address":"Winona Dr / Davenport Rd","capacity":11,"rental_methods":["KEY","CREDITCARD","TRANSITCARD","PHONE"]},{"station_id":"7303","name":"Queen St. E / Woodward Av","lat":43.665269,"lon":-79.319796,"address":"Queen St. E / Woodward Av","capacity":19,"rental_methods":["KEY","CREDITCARD","TRANSITCARD","PHONE"]},{"station_id":"7309","name":"Queen St. E / Rhodes Ave.","lat":43.666224,"lon":-79.317693,"address":"Queen St. E / Rhodes Ave.","capacity":23,"rental_methods":["KEY","CREDITCARD","TRANSITCARD","PHONE"]},{"station_id":"7311","name":"Sherbourne St / Isabella St","lat":43.669576,"lon":-79.375961,"address":"Sherbourne St / Isabella St","capacity":15,"rental_methods":["KEY","CREDITCARD","TRANSITCARD","PHONE"]},{"station_id":"7312","name":"Amelia St. / Sumach St.","lat":43.66852,"lon":-79.363525,"address":"Amelia St. / Sumach St.","capacity":11,"rental_methods":["KEY","CREDITCARD","TRANSITCARD","PHONE"]},{"station_id":"7313","name":"Coxwell Ave. / Lakeshore Blvd. E","lat":43.662771,"lon":-79.315223,"address":"Coxwell Ave. / Lakeshore Blvd. E","capacity":15,"rental_methods":["KEY","CREDITCARD","TRANSITCARD","PHONE"]},{"station_id":"7314","name":"Queen St. E / Eastern Ave","lat":43.667208,"lon":-79.312315,"address":"Queen St. E / Eastern Ave","capacity":15,"rental_methods":["KEY","CREDITCARD","TRANSITCARD","PHONE"]},{"station_id":"7315","name":"Queen St E / Hammersmith Ave","lat":43.671349,"lon":-79.29451,"address":"Queen St E / Hammersmith Ave","capacity":11,"rental_methods":["KEY","CREDITCARD","TRANSITCARD","PHONE"]},{"station_id":"7316","name":"Queen St. E / Spruce Hill Rd.","lat":43.672571,"lon":-79.289,"address":"Queen St. E / Spruce Hill Rd.","capacity":15,"rental_methods":["KEY","CREDITCARD","TRANSITCARD","PHONE"]},{"station_id":"7317","name":"Hubbarb Blvd / Balsam Av","lat":43.669328,"lon":-79.288949,"address":"Hubbarb Blvd / Balsam Av","capacity":19,"rental_methods":["KEY","CREDITCARD","TRANSITCARD","PHONE"]},{"station_id":"7318","name":"Hubbard Blvd. / Glen Manor Dr.","lat":43.668633,"lon":-79.291162,"address":"Hubbard Blvd. / Glen Manor Dr.","capacity":15,"rental_methods":["KEY","CREDITCARD","TRANSITCARD","PHONE"]},{"station_id":"7319","name":"Lakeshore Blvd. E / Knox Ave.","lat":43.660206,"lon":-79.3244,"address":"Lakeshore Blvd. E / Knox Ave.","capacity":11,"rental_methods":["KEY","CREDITCARD","TRANSITCARD","PHONE"]},{"station_id":"7320","name":"Front St W / University Ave (1)","lat":43.6451635,"lon":-79.3831757,"address":"Front St W / University Ave (1)","capacity":19,"rental_methods":["KEY","CREDITCARD","TRANSITCARD","PHONE"]},{"station_id":"7321","name":"Front St W / University Ave (2)","lat":43.6452972,"lon":-79.3827914,"address":"Front St W / University Ave (2)","capacity":19,"rental_methods":["KEY","CREDITCARD","TRANSITCARD","PHONE"]},{"station_id":"7322","name":"King St W / Brant St","lat":43.6446926,"lon":-79.3986795,"address":"King St W / Brant St","capacity":23,"rental_methods":["KEY","CREDITCARD","TRANSITCARD","PHONE"]},{"station_id":"7323","name":"457 King St. W. at Spadina","lat":43.6452091,"lon":-79.3960744,"address":"457 King St W.","capacity":19,"rental_methods":["KEY","CREDITCARD","TRANSITCARD","PHONE"]},{"station_id":"7324","name":"King St W / Charlotte St","lat":43.645572,"lon":-79.39399,"address":"King St W / Charlotte St","capacity":19,"rental_methods":["KEY","CREDITCARD","TRANSITCARD","PHONE"]},{"station_id":"7326","name":"Davenport Rd / Landsdowne Rd","lat":43.671526,"lon":-79.44874,"address":"Davenport Rd / Landsdowne Rd","capacity":19,"rental_methods":["KEY","CREDITCARD","TRANSITCARD","PHONE"]},{"station_id":"7327","name":"Davenport Rd / Oakwood Rd - SMART","lat":43.674453,"lon":-79.43439,"address":"Davenport Rd / Oakwood Rd - SMART","capacity":12,"rental_methods":["KEY","CREDITCARD","TRANSITCARD","PHONE"]},{"station_id":"7328","name":"Roxborough St W / Yonge St","lat":43.678077,"lon":-79.390328,"address":"Roxborough St W / Yonge St","capacity":17,"rental_methods":["KEY","CREDITCARD","TRANSITCARD","PHONE"]},{"station_id":"7329","name":"Crawford St / Queen St W","lat":43.645665,"lon":-79.415345,"address":"Crawford St / Queen St W","capacity":19,"rental_methods":["KEY","CREDITCARD","TRANSITCARD","PHONE"]},{"station_id":"7330","name":"Lee St / Queen St E","lat":43.669863,"lon":-79.297786,"address":"Lee St / Queen St E","capacity":11,"rental_methods":["KEY","CREDITCARD","TRANSITCARD","PHONE"]},{"station_id":"7331","name":"Coxwell Ave / Plains Rd","lat":43.69595,"lon":-79.328535,"address":"Coxwell Ave / Plains Rd","capacity":19,"rental_methods":["KEY","CREDITCARD","TRANSITCARD","PHONE"]},{"station_id":"7332","name":"200 Bloor St. E.","lat":43.671561,"lon":-79.38117,"address":"200 Bloor St. E.","capacity":23,"rental_methods":["KEY","CREDITCARD","TRANSITCARD","PHONE"]},{"station_id":"7333","name":"King St E / Victoria St","lat":43.649465,"lon":-79.3766,"address":"King St E / Victoria St","capacity":19,"rental_methods":["KEY","CREDITCARD","TRANSITCARD","PHONE"]},{"station_id":"7334","name":"Simcoe St / Wellington St 2","lat":43.6462176,"lon":-79.3855048,"address":"Simcoe St / Wellington St 2","capacity":15,"rental_methods":["KEY","CREDITCARD","TRANSITCARD","PHONE"]},{"station_id":"7335","name":"King St W / Widmer St","lat":43.64625,"lon":-79.3911576,"address":"King St W / Widmer St","capacity":15,"rental_methods":["KEY","CREDITCARD","TRANSITCARD","PHONE"]},{"station_id":"7336","name":"Queen St E / Alton Av","lat":43.663912,"lon":-79.327987,"address":"Queen St E / Alton Av","capacity":19,"rental_methods":["KEY","CREDITCARD","TRANSITCARD","PHONE"]},{"station_id":"7337","name":"Gerrard Square Mall (1010 Gerrard St E)","lat":43.668553,"lon":-79.338673,"address":"Gerrard Square Mall (1010 Gerrard St E)","capacity":15,"rental_methods":["KEY","CREDITCARD","TRANSITCARD","PHONE"]},{"station_id":"7338","name":"Logan Ave / Bain Ave","lat":43.672348,"lon":-79.34727,"address":"Logan Ave / Bain Ave","capacity":11,"rental_methods":["KEY","CREDITCARD","TRANSITCARD","PHONE"]},{"station_id":"7339","name":"Carlaw Ave / Strathcona Ave","lat":43.6753188,"lon":-79.3462789,"address":"Carlaw Ave / Strathcona Ave","capacity":15,"rental_methods":["KEY","CREDITCARD","TRANSITCARD","PHONE"]},{"station_id":"7340","name":"Blake St / Boultbee Ave","lat":43.672453,"lon":-79.338259,"address":"Blake St / Boultbee Ave","capacity":15,"rental_methods":["KEY","CREDITCARD","TRANSITCARD","PHONE"]},{"station_id":"7341","name":"Eastern Ave / Winnifred Ave","lat":43.659178,"lon":-79.334966,"address":"Eastern Ave / Winnifred Ave","capacity":15,"rental_methods":["KEY","CREDITCARD","TRANSITCARD","PHONE"]},{"station_id":"7342","name":"Morse St / Eastern Ave","lat":43.657991,"lon":-79.340075,"address":"Morse St / Eastern Ave","capacity":11,"rental_methods":["KEY","CREDITCARD","TRANSITCARD","PHONE"]},{"station_id":"7343","name":"Alton Ave / Dundas St E (Greenwood Park)","lat":43.66745,"lon":-79.329408,"address":"Alton Ave / Dundas St E (Greenwood Park)","capacity":23,"rental_methods":["KEY","CREDITCARD","TRANSITCARD","PHONE"]},{"station_id":"7344","name":"Cherry Beach","lat":43.637764,"lon":-79.345359,"address":"Cherry Beach","capacity":25,"rental_methods":["KEY","CREDITCARD","TRANSITCARD","PHONE"]},{"station_id":"7345","name":"Cherry Beach Sports Field (55 Unwin Ave)","lat":43.640757,"lon":-79.343144,"address":"Cherry Beach Sports Field (55 Unwin Ave)","capacity":15,"rental_methods":["KEY","CREDITCARD","TRANSITCARD","PHONE"]},{"station_id":"7346","name":"Logan Av / McConnell Av","lat":43.675887,"lon":-79.348733,"address":"Logan Av / McConnell Av","capacity":19,"rental_methods":["KEY","CREDITCARD","TRANSITCARD","PHONE"]},{"station_id":"7347","name":"Regal Rd / Dufferin St","lat":43.673939,"lon":-79.441159,"address":"Regal Rd / Dufferin St","capacity":15,"rental_methods":["KEY","CREDITCARD","TRANSITCARD","PHONE"]},{"station_id":"7348","name":"Pape Ave / Gamble Ave","lat":43.690237,"lon":-79.350119,"address":"Pape Ave / Gamble Ave","capacity":19,"rental_methods":["KEY","CREDITCARD","TRANSITCARD","PHONE"]},{"station_id":"7349","name":"Gamble Ave / Broadview Ave","lat":43.689211,"lon":-79.35438,"address":"Gamble Ave / Broadview Ave","capacity":23,"rental_methods":["KEY","CREDITCARD","TRANSITCARD","PHONE"]},{"station_id":"7350","name":"Broadview Ave / Westwood Ave","lat":43.6848652,"lon":-79.356602,"address":"Broadview Ave/ Westwood Ave","capacity":23,"rental_methods":["KEY","CREDITCARD","TRANSITCARD","PHONE"]},{"station_id":"7351","name":"Pretoria Av / Broadview Av","lat":43.6783213,"lon":-79.35822,"address":"Pretoria Av / Broadview Av","capacity":19,"rental_methods":["KEY","CREDITCARD","TRANSITCARD","PHONE"]},{"station_id":"7352","name":"Cosburn Ave / Donlands Ave","lat":43.690537,"lon":-79.341307,"address":"Cosburn Ave / Donlands Ave","capacity":19,"rental_methods":["KEY","CREDITCARD","TRANSITCARD","PHONE"]},{"station_id":"7353","name":"Fulton Ave / Pape Ave","lat":43.68395,"lon":-79.347046,"address":"Fulton Ave / Pape Ave","capacity":19,"rental_methods":["KEY","CREDITCARD","TRANSITCARD","PHONE"]},{"station_id":"7354","name":"Tommy Thompson Park (Leslie Street Spit)","lat":43.652195,"lon":-79.322796,"address":"Tommy Thompson Park (Leslie Street Spit)","capacity":19,"rental_methods":["KEY","CREDITCARD","TRANSITCARD","PHONE"]},{"station_id":"7355","name":"Beltline Trail / Chaplin Cres.","lat":43.704461,"lon":-79.423122,"address":"Beltline Trail / Chaplin Cres.","capacity":15,"rental_methods":["KEY","CREDITCARD","TRANSITCARD","PHONE"]},{"station_id":"7356","name":"King St E / Ontario St.","lat":43.651885,"lon":-79.3649,"address":"King St E / Ontario St.","capacity":14,"rental_methods":["KEY","CREDITCARD","TRANSITCARD","PHONE"]},{"station_id":"7357","name":"Lakeshore Blvd E /Leslie St","lat":43.659195,"lon":-79.329196,"address":"Lakeshore Blvd E /Leslie St","capacity":19,"rental_methods":["KEY","CREDITCARD","TRANSITCARD","PHONE"]},{"station_id":"7358","name":"Gailbraith Rd / Kings College Cr. (U of T)","lat":43.660382,"lon":-79.3954,"address":"Gailbraith Rd / Kings College Cr. (U of T)","capacity":17,"rental_methods":["KEY","CREDITCARD","TRANSITCARD","PHONE"]},{"station_id":"7359","name":"Rosedale Park (20 Schofield Ave)","lat":43.682645,"lon":-79.377557,"address":"Rosedale Park (20 Schofield Ave)","capacity":23,"rental_methods":["KEY","CREDITCARD","TRANSITCARD","PHONE"]},{"station_id":"7360","name":"Concord Av / Dewson St","lat":43.656945,"lon":-79.424911,"address":"Concord Av / Dewson St","capacity":17,"rental_methods":["KEY","CREDITCARD","TRANSITCARD","PHONE"]},{"station_id":"7361","name":"Hocken Ave./Vaughan Rd.","lat":43.6817346,"lon":-79.4184725,"address":"Hocken Ave./Vaughan Rd.","capacity":19,"rental_methods":["KEY","CREDITCARD","TRANSITCARD","PHONE"]},{"station_id":"7362","name":"St Clair Ave W / Bathurst St.","lat":43.683296,"lon":-79.418734,"address":"St Clair Ave W / Bathurst St.","capacity":19,"rental_methods":["KEY","CREDITCARD","TRANSITCARD","PHONE"]},{"station_id":"7363","name":"Wells Hill Ave / St Clair Ave W","lat":43.683351,"lon":-79.41562,"address":"Wells Hill Ave / St Clair Ave W","capacity":15,"rental_methods":["KEY","CREDITCARD","TRANSITCARD","PHONE"]},{"station_id":"7364","name":"Queen St E / Nursewood Rd (Neville Park Loop)","lat":43.673831,"lon":-79.281455,"address":"Queen St E / Nursewood Rd (Neville Park Loop)","capacity":19,"rental_methods":["KEY","CREDITCARD","TRANSITCARD","PHONE"]},{"station_id":"7365","name":"Kew Beach Ave / Kenilworth Ave","lat":43.666325,"lon":-79.3014,"address":"Kew Beach Ave / Kenilworth Ave","capacity":23,"rental_methods":["KEY","CREDITCARD","TRANSITCARD","PHONE"]},{"station_id":"7366","name":"Fort York Blvd / Bathurst St SMART","lat":43.639052,"lon":-79.399792,"address":"Fort York Blvd / Bathurst St SMART","capacity":20,"rental_methods":["KEY","CREDITCARD","TRANSITCARD","PHONE"]},{"station_id":"7367","name":"Alma Ave / Gladstone Ave SMART","lat":43.6448617,"lon":-79.42822,"address":"Alma Ave / Gladstone Ave SMART","capacity":16,"rental_methods":["KEY","CREDITCARD","TRANSITCARD","PHONE"]},{"station_id":"7368","name":"Lisgar St / Dundas St SMART","lat":43.6493472,"lon":-79.42668,"address":"Lisgar St / Dundas St SMART","capacity":8,"rental_methods":["KEY","CREDITCARD","TRANSITCARD","PHONE"]},{"station_id":"7369","name":"Dupont St / Emerson Ave SMART","lat":43.667266,"lon":-79.443946,"address":"Dupont St / Emerson Ave  SMART","capacity":16,"rental_methods":["KEY","CREDITCARD","TRANSITCARD","PHONE"]},{"station_id":"7371","name":"Eglinton Ave W / Henning Ave SMART","lat":43.7063473,"lon":-79.40161,"address":"Eglinton Ave W / Henning Ave SMART","capacity":20,"rental_methods":["KEY","CREDITCARD","TRANSITCARD","PHONE"]},{"station_id":"7372","name":"King St W / Portland St","lat":43.6442859,"lon":-79.40074,"address":"King St W / Portland St","capacity":23,"rental_methods":["KEY","CREDITCARD","TRANSITCARD","PHONE"]},{"station_id":"7373","name":"George St / King St E","lat":43.6509552,"lon":-79.3707,"address":"George St / King St E","capacity":15,"rental_methods":["KEY","CREDITCARD","TRANSITCARD","PHONE"]},{"station_id":"7374","name":"Frederick St / The Esplanade","lat":43.6487245,"lon":-79.36839,"address":"Frederick St / The Esplanade","capacity":13,"rental_methods":["KEY","CREDITCARD","TRANSITCARD","PHONE"]},{"station_id":"7375","name":"Front St E / Scott St","lat":43.6476616,"lon":-79.37549,"address":"Front St E / Scott St","capacity":11,"rental_methods":["KEY","CREDITCARD","TRANSITCARD","PHONE"]},{"station_id":"7376","name":"Frobisher Ave / Lascelles Blvd","lat":43.696708,"lon":-79.40045,"address":"Frobisher Ave / Lascelles Blvd","capacity":19,"rental_methods":["KEY","CREDITCARD","TRANSITCARD","PHONE"]},{"station_id":"7377","name":"Balliol St / Yonge St  SMART","lat":43.6978701,"lon":-79.39419,"address":"Balliol St / Yonge St SMART","capacity":20,"rental_methods":["KEY","CREDITCARD","TRANSITCARD","PHONE"]},{"station_id":"7378","name":"Yonge St / Davisville Ave","lat":43.6975969,"lon":-79.39654,"address":"Yonge St / Davisville Ave","capacity":15,"rental_methods":["KEY","CREDITCARD","TRANSITCARD","PHONE"]},{"station_id":"7379","name":"Lawton Blvd / Yonge St","lat":43.6910667,"lon":-79.39535,"address":"Lawton Blvd / Yonge St","capacity":15,"rental_methods":["KEY","CREDITCARD","TRANSITCARD","PHONE"]},{"station_id":"7380","name":"Erskine Ave / Yonge St SMART","lat":43.7112153,"lon":-79.39894,"address":"Erskine Ave / Yonge St SMART","capacity":16,"rental_methods":["KEY","CREDITCARD","TRANSITCARD","PHONE"]},{"station_id":"7381","name":"Roehampton Ave / Yonge St","lat":43.7080145,"lon":-79.39826,"address":"Roehampton Ave / Yonge St","capacity":19,"rental_methods":["KEY","CREDITCARD","TRANSITCARD","PHONE"]},{"station_id":"7382","name":"Simcoe St / Adelaide St W","lat":43.6481303,"lon":-79.38632,"address":"Simcoe St / Adelaide St W","capacity":20,"rental_methods":["KEY","CREDITCARD","TRANSITCARD","PHONE"]},{"station_id":"7383","name":"12 Harbour St","lat":43.6425636,"lon":-79.3762,"address":"12 Harbour St","capacity":15,"rental_methods":["KEY","CREDITCARD","TRANSITCARD","PHONE"]},{"station_id":"7384","name":"Cumberland Ave / Bay St SMART","lat":43.6704537,"lon":-79.39014,"address":"Cumberland Ave / Bay St SMART","capacity":12,"rental_methods":["KEY","CREDITCARD","TRANSITCARD","PHONE"]},{"station_id":"7385","name":"20 Charles St E","lat":43.6691099,"lon":-79.38551,"address":"20 Charles St E","capacity":23,"rental_methods":["KEY","CREDITCARD","TRANSITCARD","PHONE"]},{"station_id":"7386","name":"D'Arcy St. /McCaul St. SMART","lat":43.655227,"lon":-79.39201,"address":"D'Arcy St, /McCaul St. SMART","capacity":16,"rental_methods":["KEY","CREDITCARD","TRANSITCARD","PHONE"]},{"station_id":"7387","name":"Mortimer Ave / Carlaw Ave SMART","lat":43.685167,"lon":-79.34962,"address":"Mortimer Ave / Carlaw Ave SMART","capacity":12,"rental_methods":["KEY","CREDITCARD","TRANSITCARD","PHONE"]},{"station_id":"7388","name":"Broadview Ave / Danforth Ave","lat":43.6772,"lon":-79.35858,"address":"Broadview Ave / Danforth Ave","capacity":15,"rental_methods":["KEY","CREDITCARD","TRANSITCARD","PHONE"]},{"station_id":"7389","name":"College Park- Gerrard Entrance","lat":43.658938,"lon":-79.383518,"address":"Gerrard St","post_code":"m8z4t4","capacity":25,"rental_methods":["KEY","CREDITCARD","TRANSITCARD","PHONE"]},{"station_id":"7391","name":"Yonge St / Dundas Sq","lat":43.655766,"lon":-79.3802,"address":"Yonge St / Dundas Sq","cross_street":"Yonge St / Dundas Sq","capacity":27,"rental_methods":["KEY","CREDITCARD","TRANSITCARD","PHONE"]}]}}